[
  {
    "id": 1,
    "name": "Адмиралтейский судостроительный завод",
    "lat": 59.921828,
    "lon": 30.272914
  },
  {
    "id": 2,
    "name": "Ледокол Красин",
    "lat": 59.927737,
    "lon": 30.268845
  },
  {
    "id": 3,
    "name": "Государственный музей истории города Санкт-Петербурга Музей-квартира А.А. Блока",
    "lat": 59.923694,
    "lon": 30.282092
  },
  {
    "id": 4,
    "name": "Народный музей А музы не молчали...",
    "lat": 59.926725,
    "lon": 30.280033
  },
  {
    "id": 5,
    "name": "Дворец великого князя Михаила Александровича",
    "lat": 59.932421,
    "lon": 30.287510
  },
  {
    "id": 6,
    "name": "Государственный музей истории Санкт-Петербурга, особняк Румянцева",
    "lat": 59.932842,
    "lon": 30.289453
  },
  {
    "id": 7,
    "name": "Церковь Успения Пресвятой Богородицы",
    "lat": 59.933334,
    "lon": 30.275773
  },
  {
    "id": 8,
    "name": "Меншиковский дворец",
    "lat": 59.938694,
    "lon": 30.295263
  },
  {
    "id": 9,
    "name": "Музей антропологии и этнографии имени Петра Великого Российской академии наук",
    "lat": 59.941653,
    "lon": 30.305019
  },
  {
    "id": 10,
    "name": "Государственный Эрмитаж",
    "lat": 59.941155,
    "lon": 30.312933
  },
  {
    "id": 11,
    "name": "Стрелка Васильевского острова",
    "lat": 59.944372,
    "lon": 30.307449
  },
  {
    "id": 12,
    "name": "Церковь Спаса Нерукотворного Образа на Конюшенной площади",
    "lat": 59.941769,
    "lon": 30.327711
  },
  {
    "id": 13,
    "name": "Михайловский замок",
    "lat": 59.941322,
    "lon": 30.337777
  },
  {
    "id": 14,
    "name": "Петропавловская крепость",
    "lat": 59.948793,
    "lon": 30.318186
  },
  {
    "id": 15,
    "name": "Летний сад",
    "lat": 59.947180,
    "lon": 30.334477
  },
  {
    "id": 16,
    "name": "Строгановский дворец",
    "lat": 59.935942,
    "lon": 30.320051
  }
]