[
  {
    "id": 1,
    "lat": 59.928682,
    "lon": 30.283463,
    "address": "Набережная реки Мойки"
  },
  {
    "id": 2,
    "lat": 59.931648,
    "lon": 30.273744,
    "address": "Муниципальный район № 7"
  },
  {
    "id": 3,
    "lat": 59.935050,
    "lon": 30.281703,
    "address": "Набережная Лейтенанта Шмидта"
  },
  {
    "id": 4,
    "lat": 59.934164,
    "lon": 30.293515,
    "address": "Английская набережная"
  },
  {
    "id": 5,
    "lat": 59.937319,
    "lon": 30.292002,
    "address": "Университетская набережная"
  },
  {
    "id": 6,
    "lat": 59.936660,
    "lon": 30.300739,
    "address": "Адмиралтейская набережная"
  },
  {
    "id": 7,
    "lat": 59.940194,
    "lon": 30.302043,
    "address": "Университетская набережная"
  },
  {
    "id": 8,
    "lat": 59.945402,
    "lon": 30.300072,
    "address": "Набережная Макарова"
  },
  {
    "id": 9,
    "lat": 59.948955,
    "lon": 30.307231,
    "address": "Мытнинская набережная"
  },
  {
    "id": 10,
    "lat": 59.952826,
    "lon": 30.322014,
    "address": "Кронверкская набережная"
  },
  {
    "id": 11,
    "lat": 59.945443,
    "lon": 30.325594,
    "address": "Дворцовая набережная"
  },
  {
    "id": 12,
    "lat": 59.942215,
    "lon": 30.326492,
    "address": "Набережная реки Мойки"
  },
  {
    "id": 13,
    "lat": 59.941337,
    "lon": 30.320299,
    "address": "Набережная реки Мойки"
  },
  {
    "id": 14,
    "lat": 59.934785,
    "lon": 30.318823,
    "address": "Набережная реки Мойки"
  },
  {
    "id": 15,
    "lat": 59.931238,
    "lon": 30.307457,
    "address": "Набережная реки Мойки"
  },
  {
    "id": 16,
    "lat": 59.929824,
    "lon": 30.297950,
    "address": "Большая Морская улица"
  }
]